{
"type": "FeatureCollection",
"name": "Govs",
"crs": { "type": "name", "properties": { "name": "urn:ogc:def:crs:OGC:1.3:CRS84" } },
"features": [
{ "type": "Feature", "properties": { "Name": "Cairo", "description": null }, "geometry": { "type": "Point", "coordinates": [ 31.2357116, 30.0444196 ] } },
{ "type": "Feature", "properties": { "Name": "Alexandria", "description": null }, "geometry": { "type": "Point", "coordinates": [ 29.9187387, 31.2000924 ] } },
{ "type": "Feature", "properties": { "Name": "Port Said", "description": null }, "geometry": { "type": "Point", "coordinates": [ 32.3018661, 31.2652893 ] } },
{ "type": "Feature", "properties": { "Name": "Suez", "description": null }, "geometry": { "type": "Point", "coordinates": [ 32.5498069, 29.9668343 ] } },
{ "type": "Feature", "properties": { "Name": "Damietta", "description": null }, "geometry": { "type": "Point", "coordinates": [ 31.8144434, 31.4175388 ] } },
{ "type": "Feature", "properties": { "Name": "Dakahlia", "description": null }, "geometry": { "type": "Point", "coordinates": [ 31.4913182, 31.1656044 ] } },
{ "type": "Feature", "properties": { "Name": "Sharqia", "description": null }, "geometry": { "type": "Point", "coordinates": [ 31.7195459, 30.7326622 ] } },
{ "type": "Feature", "properties": { "Name": "Qalyubia", "description": null }, "geometry": { "type": "Point", "coordinates": [ 31.2168466, 30.3292368 ] } },
{ "type": "Feature", "properties": { "Name": "Kafr El Sheikh", "description": null }, "geometry": { "type": "Point", "coordinates": [ 30.9387799, 31.1106593 ] } },
{ "type": "Feature", "properties": { "Name": "Gharbia", "description": null }, "geometry": { "type": "Point", "coordinates": [ 31.03351, 30.8753556 ] } },
{ "type": "Feature", "properties": { "Name": "Monufia", "description": null }, "geometry": { "type": "Point", "coordinates": [ 30.9876321, 30.5972455 ] } },
{ "type": "Feature", "properties": { "Name": "Beheira", "description": null }, "geometry": { "type": "Point", "coordinates": [ 30.3435506, 30.8480986 ] } },
{ "type": "Feature", "properties": { "Name": "Ismailia", "description": null }, "geometry": { "type": "Point", "coordinates": [ 32.2714587, 30.5964923 ] } },
{ "type": "Feature", "properties": { "Name": "Giza", "description": null }, "geometry": { "type": "Point", "coordinates": [ 31.2088526, 30.0130557 ] } },
{ "type": "Feature", "properties": { "Name": "Beni Suef", "description": null }, "geometry": { "type": "Point", "coordinates": [ 31.0993845, 29.0661274 ] } },
{ "type": "Feature", "properties": { "Name": "Faiyum", "description": null }, "geometry": { "type": "Point", "coordinates": [ 30.8428497, 29.3084021 ] } },
{ "type": "Feature", "properties": { "Name": "Minya", "description": null }, "geometry": { "type": "Point", "coordinates": [ 30.7618397, 28.0870967 ] } },
{ "type": "Feature", "properties": { "Name": "Asyut", "description": null }, "geometry": { "type": "Point", "coordinates": [ 31.1859257, 27.1783117 ] } },
{ "type": "Feature", "properties": { "Name": "Sohag", "description": null }, "geometry": { "type": "Point", "coordinates": [ 31.6956705, 26.5590737 ] } },
{ "type": "Feature", "properties": { "Name": "Qena", "description": null }, "geometry": { "type": "Point", "coordinates": [ 32.7160121, 26.155061 ] } },
{ "type": "Feature", "properties": { "Name": "Aswan", "description": null }, "geometry": { "type": "Point", "coordinates": [ 32.8998293, 24.088938 ] } },
{ "type": "Feature", "properties": { "Name": "Luxor", "description": null }, "geometry": { "type": "Point", "coordinates": [ 32.6396357, 25.6872431 ] } },
{ "type": "Feature", "properties": { "Name": "Red Sea", "description": null }, "geometry": { "type": "Point", "coordinates": [ 38.512573, 20.280232 ] } },
{ "type": "Feature", "properties": { "Name": "New Valley", "description": null }, "geometry": { "type": "Point", "coordinates": [ 27.1735316, 24.5455638 ] } },
{ "type": "Feature", "properties": { "Name": "Matruh", "description": null }, "geometry": { "type": "Point", "coordinates": [ 26.419389, 29.569635 ] } },
{ "type": "Feature", "properties": { "Name": "North Sinai", "description": null }, "geometry": { "type": "Point", "coordinates": [ 33.617577, 30.282365 ] } },
{ "type": "Feature", "properties": { "Name": "South Sinai", "description": null }, "geometry": { "type": "Point", "coordinates": [ 34.1531947, 29.3101828 ] } }
]
}
